{
  "schemaVersion": 1,
  "datasetId": "top100-city-destinations-euromonitor-2018-static-v1",
  "source": {
    "id": "euromonitor-top100-city-destinations-2018",
    "name": "Euromonitor Top 100 City Destinations 2018",
    "url": "https://go.euromonitor.com/white-paper-travel-2018-100-cities",
    "rankingYear": 2018,
    "rankingBasisYear": 2017,
    "rankingDate": "2018-11-01",
    "metric": "international arrivals by city, 2017 current ranking",
    "licenseUsageNote": "Static factual ranking transcription from the public Euromonitor white paper; do not bundle report prose or imagery."
  },
  "requiredCount": 100,
  "requiredRanks": "1-100-contiguous",
  "cities": [
    {
      "id": "hong-kong",
      "rank": 1,
      "city": "Hong Kong",
      "country": "Hong Kong, China",
      "region": "Global",
      "lat": 22.3193,
      "lng": 114.1694,
      "link": "https://en.wikipedia.org/wiki/Hong_Kong",
      "sourceId": "euromonitor-top100-city-destinations-2018"
    },
    {
      "id": "bangkok",
      "rank": 2,
      "city": "Bangkok",
      "country": "Thailand",
      "region": "Global",
      "lat": 13.7563,
      "lng": 100.5018,
      "link": "https://en.wikipedia.org/wiki/Bangkok",
      "sourceId": "euromonitor-top100-city-destinations-2018"
    },
    {
      "id": "london",
      "rank": 3,
      "city": "London",
      "country": "United Kingdom",
      "region": "Global",
      "lat": 51.5072,
      "lng": -0.1276,
      "link": "https://en.wikipedia.org/wiki/London",
      "sourceId": "euromonitor-top100-city-destinations-2018"
    },
    {
      "id": "singapore",
      "rank": 4,
      "city": "Singapore",
      "country": "Singapore",
      "region": "Global",
      "lat": 1.3521,
      "lng": 103.8198,
      "link": "https://en.wikipedia.org/wiki/Singapore",
      "sourceId": "euromonitor-top100-city-destinations-2018"
    },
    {
      "id": "macau",
      "rank": 5,
      "city": "Macau",
      "country": "Macau, China",
      "region": "Global",
      "lat": 22.1987,
      "lng": 113.5439,
      "link": "https://en.wikipedia.org/wiki/Macau",
      "sourceId": "euromonitor-top100-city-destinations-2018"
    },
    {
      "id": "paris",
      "rank": 6,
      "city": "Paris",
      "country": "France",
      "region": "Global",
      "lat": 48.8566,
      "lng": 2.3522,
      "link": "https://en.wikipedia.org/wiki/Paris",
      "sourceId": "euromonitor-top100-city-destinations-2018"
    },
    {
      "id": "dubai",
      "rank": 7,
      "city": "Dubai",
      "country": "United Arab Emirates",
      "region": "Global",
      "lat": 25.2048,
      "lng": 55.2708,
      "link": "https://en.wikipedia.org/wiki/Dubai",
      "sourceId": "euromonitor-top100-city-destinations-2018"
    },
    {
      "id": "new-york-city",
      "rank": 8,
      "city": "New York City",
      "country": "United States",
      "region": "Global",
      "lat": 40.7128,
      "lng": -74.006,
      "link": "https://en.wikipedia.org/wiki/New_York_City",
      "sourceId": "euromonitor-top100-city-destinations-2018"
    },
    {
      "id": "kuala-lumpur",
      "rank": 9,
      "city": "Kuala Lumpur",
      "country": "Malaysia",
      "region": "Global",
      "lat": 3.139,
      "lng": 101.6869,
      "link": "https://en.wikipedia.org/wiki/Kuala_Lumpur",
      "sourceId": "euromonitor-top100-city-destinations-2018"
    },
    {
      "id": "shenzhen",
      "rank": 10,
      "city": "Shenzhen",
      "country": "China",
      "region": "Global",
      "lat": 22.5431,
      "lng": 114.0579,
      "link": "https://en.wikipedia.org/wiki/Shenzhen",
      "sourceId": "euromonitor-top100-city-destinations-2018"
    },
    {
      "id": "phuket",
      "rank": 11,
      "city": "Phuket",
      "country": "Thailand",
      "region": "Global",
      "lat": 7.8804,
      "lng": 98.3923,
      "link": "https://en.wikipedia.org/wiki/Phuket",
      "sourceId": "euromonitor-top100-city-destinations-2018"
    },
    {
      "id": "istanbul",
      "rank": 12,
      "city": "Istanbul",
      "country": "Turkey",
      "region": "Global",
      "lat": 41.0082,
      "lng": 28.9784,
      "link": "https://en.wikipedia.org/wiki/Istanbul",
      "sourceId": "euromonitor-top100-city-destinations-2018"
    },
    {
      "id": "delhi",
      "rank": 13,
      "city": "Delhi",
      "country": "India",
      "region": "Global",
      "lat": 28.7041,
      "lng": 77.1025,
      "link": "https://en.wikipedia.org/wiki/Delhi",
      "sourceId": "euromonitor-top100-city-destinations-2018"
    },
    {
      "id": "tokyo",
      "rank": 14,
      "city": "Tokyo",
      "country": "Japan",
      "region": "Global",
      "lat": 35.6762,
      "lng": 139.6503,
      "link": "https://en.wikipedia.org/wiki/Tokyo",
      "sourceId": "euromonitor-top100-city-destinations-2018"
    },
    {
      "id": "rome",
      "rank": 15,
      "city": "Rome",
      "country": "Italy",
      "region": "Global",
      "lat": 41.9028,
      "lng": 12.4964,
      "link": "https://en.wikipedia.org/wiki/Rome",
      "sourceId": "euromonitor-top100-city-destinations-2018"
    },
    {
      "id": "antalya",
      "rank": 16,
      "city": "Antalya",
      "country": "Turkey",
      "region": "Global",
      "lat": 36.8969,
      "lng": 30.7133,
      "link": "https://en.wikipedia.org/wiki/Antalya",
      "sourceId": "euromonitor-top100-city-destinations-2018"
    },
    {
      "id": "taipei",
      "rank": 17,
      "city": "Taipei",
      "country": "Taiwan",
      "region": "Global",
      "lat": 25.033,
      "lng": 121.5654,
      "link": "https://en.wikipedia.org/wiki/Taipei",
      "sourceId": "euromonitor-top100-city-destinations-2018"
    },
    {
      "id": "guangzhou",
      "rank": 18,
      "city": "Guangzhou",
      "country": "China",
      "region": "Global",
      "lat": 23.1291,
      "lng": 113.2644,
      "link": "https://en.wikipedia.org/wiki/Guangzhou",
      "sourceId": "euromonitor-top100-city-destinations-2018"
    },
    {
      "id": "mumbai",
      "rank": 19,
      "city": "Mumbai",
      "country": "India",
      "region": "Global",
      "lat": 19.076,
      "lng": 72.8777,
      "link": "https://en.wikipedia.org/wiki/Mumbai",
      "sourceId": "euromonitor-top100-city-destinations-2018"
    },
    {
      "id": "prague",
      "rank": 20,
      "city": "Prague",
      "country": "Czech Republic",
      "region": "Global",
      "lat": 50.0755,
      "lng": 14.4378,
      "link": "https://en.wikipedia.org/wiki/Prague",
      "sourceId": "euromonitor-top100-city-destinations-2018"
    },
    {
      "id": "mecca",
      "rank": 21,
      "city": "Mecca",
      "country": "Saudi Arabia",
      "region": "Global",
      "lat": 21.3891,
      "lng": 39.8579,
      "link": "https://en.wikipedia.org/wiki/Mecca",
      "sourceId": "euromonitor-top100-city-destinations-2018"
    },
    {
      "id": "miami",
      "rank": 22,
      "city": "Miami",
      "country": "United States",
      "region": "Global",
      "lat": 25.7617,
      "lng": -80.1918,
      "link": "https://en.wikipedia.org/wiki/Miami",
      "sourceId": "euromonitor-top100-city-destinations-2018"
    },
    {
      "id": "amsterdam",
      "rank": 23,
      "city": "Amsterdam",
      "country": "Netherlands",
      "region": "Global",
      "lat": 52.3676,
      "lng": 4.9041,
      "link": "https://en.wikipedia.org/wiki/Amsterdam",
      "sourceId": "euromonitor-top100-city-destinations-2018"
    },
    {
      "id": "seoul",
      "rank": 24,
      "city": "Seoul",
      "country": "South Korea",
      "region": "Global",
      "lat": 37.5665,
      "lng": 126.978,
      "link": "https://en.wikipedia.org/wiki/Seoul",
      "sourceId": "euromonitor-top100-city-destinations-2018"
    },
    {
      "id": "pattaya",
      "rank": 25,
      "city": "Pattaya",
      "country": "Thailand",
      "region": "Global",
      "lat": 12.9236,
      "lng": 100.8825,
      "link": "https://en.wikipedia.org/wiki/Pattaya",
      "sourceId": "euromonitor-top100-city-destinations-2018"
    },
    {
      "id": "shanghai",
      "rank": 26,
      "city": "Shanghai",
      "country": "China",
      "region": "Global",
      "lat": 31.2304,
      "lng": 121.4737,
      "link": "https://en.wikipedia.org/wiki/Shanghai",
      "sourceId": "euromonitor-top100-city-destinations-2018"
    },
    {
      "id": "los-angeles",
      "rank": 27,
      "city": "Los Angeles",
      "country": "United States",
      "region": "Global",
      "lat": 34.0522,
      "lng": -118.2437,
      "link": "https://en.wikipedia.org/wiki/Los_Angeles",
      "sourceId": "euromonitor-top100-city-destinations-2018"
    },
    {
      "id": "las-vegas",
      "rank": 28,
      "city": "Las Vegas",
      "country": "United States",
      "region": "Global",
      "lat": 36.1699,
      "lng": -115.1398,
      "link": "https://en.wikipedia.org/wiki/Las_Vegas",
      "sourceId": "euromonitor-top100-city-destinations-2018"
    },
    {
      "id": "agra",
      "rank": 29,
      "city": "Agra",
      "country": "India",
      "region": "Global",
      "lat": 27.1767,
      "lng": 78.0081,
      "link": "https://en.wikipedia.org/wiki/Agra",
      "sourceId": "euromonitor-top100-city-destinations-2018"
    },
    {
      "id": "osaka",
      "rank": 30,
      "city": "Osaka",
      "country": "Japan",
      "region": "Global",
      "lat": 34.6937,
      "lng": 135.5023,
      "link": "https://en.wikipedia.org/wiki/Osaka",
      "sourceId": "euromonitor-top100-city-destinations-2018"
    },
    {
      "id": "barcelona",
      "rank": 31,
      "city": "Barcelona",
      "country": "Spain",
      "region": "Global",
      "lat": 41.3874,
      "lng": 2.1686,
      "link": "https://en.wikipedia.org/wiki/Barcelona",
      "sourceId": "euromonitor-top100-city-destinations-2018"
    },
    {
      "id": "milan",
      "rank": 32,
      "city": "Milan",
      "country": "Italy",
      "region": "Global",
      "lat": 45.4642,
      "lng": 9.19,
      "link": "https://en.wikipedia.org/wiki/Milan",
      "sourceId": "euromonitor-top100-city-destinations-2018"
    },
    {
      "id": "denpasar",
      "rank": 33,
      "city": "Denpasar",
      "country": "Indonesia",
      "region": "Global",
      "lat": -8.65,
      "lng": 115.2167,
      "link": "https://en.wikipedia.org/wiki/Denpasar",
      "sourceId": "euromonitor-top100-city-destinations-2018"
    },
    {
      "id": "vienna",
      "rank": 34,
      "city": "Vienna",
      "country": "Austria",
      "region": "Global",
      "lat": 48.2082,
      "lng": 16.3738,
      "link": "https://en.wikipedia.org/wiki/Vienna",
      "sourceId": "euromonitor-top100-city-destinations-2018"
    },
    {
      "id": "canc-n",
      "rank": 35,
      "city": "Cancún",
      "country": "Mexico",
      "region": "Global",
      "lat": 21.1619,
      "lng": -86.8515,
      "link": "https://en.wikipedia.org/wiki/Cancún",
      "sourceId": "euromonitor-top100-city-destinations-2018"
    },
    {
      "id": "berlin",
      "rank": 36,
      "city": "Berlin",
      "country": "Germany",
      "region": "Global",
      "lat": 52.52,
      "lng": 13.405,
      "link": "https://en.wikipedia.org/wiki/Berlin",
      "sourceId": "euromonitor-top100-city-destinations-2018"
    },
    {
      "id": "johor-bahru",
      "rank": 37,
      "city": "Johor Bahru",
      "country": "Malaysia",
      "region": "Global",
      "lat": 1.4927,
      "lng": 103.7414,
      "link": "https://en.wikipedia.org/wiki/Johor_Bahru",
      "sourceId": "euromonitor-top100-city-destinations-2018"
    },
    {
      "id": "johannesburg",
      "rank": 38,
      "city": "Johannesburg",
      "country": "South Africa",
      "region": "Global",
      "lat": -26.2041,
      "lng": 28.0473,
      "link": "https://en.wikipedia.org/wiki/Johannesburg",
      "sourceId": "euromonitor-top100-city-destinations-2018"
    },
    {
      "id": "ho-chi-minh-city",
      "rank": 39,
      "city": "Ho Chi Minh City",
      "country": "Vietnam",
      "region": "Global",
      "lat": 10.8231,
      "lng": 106.6297,
      "link": "https://en.wikipedia.org/wiki/Ho_Chi_Minh_City",
      "sourceId": "euromonitor-top100-city-destinations-2018"
    },
    {
      "id": "riyadh",
      "rank": 40,
      "city": "Riyadh",
      "country": "Saudi Arabia",
      "region": "Global",
      "lat": 24.7136,
      "lng": 46.6753,
      "link": "https://en.wikipedia.org/wiki/Riyadh",
      "sourceId": "euromonitor-top100-city-destinations-2018"
    },
    {
      "id": "venice",
      "rank": 41,
      "city": "Venice",
      "country": "Italy",
      "region": "Global",
      "lat": 45.4408,
      "lng": 12.3155,
      "link": "https://en.wikipedia.org/wiki/Venice",
      "sourceId": "euromonitor-top100-city-destinations-2018"
    },
    {
      "id": "jaipur",
      "rank": 42,
      "city": "Jaipur",
      "country": "India",
      "region": "Global",
      "lat": 26.9124,
      "lng": 75.7873,
      "link": "https://en.wikipedia.org/wiki/Jaipur",
      "sourceId": "euromonitor-top100-city-destinations-2018"
    },
    {
      "id": "madrid",
      "rank": 43,
      "city": "Madrid",
      "country": "Spain",
      "region": "Global",
      "lat": 40.4168,
      "lng": -3.7038,
      "link": "https://en.wikipedia.org/wiki/Madrid",
      "sourceId": "euromonitor-top100-city-destinations-2018"
    },
    {
      "id": "orlando",
      "rank": 44,
      "city": "Orlando",
      "country": "United States",
      "region": "Global",
      "lat": 28.5383,
      "lng": -81.3792,
      "link": "https://en.wikipedia.org/wiki/Orlando",
      "sourceId": "euromonitor-top100-city-destinations-2018"
    },
    {
      "id": "chennai",
      "rank": 45,
      "city": "Chennai",
      "country": "India",
      "region": "Global",
      "lat": 13.0827,
      "lng": 80.2707,
      "link": "https://en.wikipedia.org/wiki/Chennai",
      "sourceId": "euromonitor-top100-city-destinations-2018"
    },
    {
      "id": "dublin",
      "rank": 46,
      "city": "Dublin",
      "country": "Ireland",
      "region": "Global",
      "lat": 53.3498,
      "lng": -6.2603,
      "link": "https://en.wikipedia.org/wiki/Dublin",
      "sourceId": "euromonitor-top100-city-destinations-2018"
    },
    {
      "id": "florence",
      "rank": 47,
      "city": "Florence",
      "country": "Italy",
      "region": "Global",
      "lat": 43.7696,
      "lng": 11.2558,
      "link": "https://en.wikipedia.org/wiki/Florence",
      "sourceId": "euromonitor-top100-city-destinations-2018"
    },
    {
      "id": "moscow",
      "rank": 48,
      "city": "Moscow",
      "country": "Russia",
      "region": "Global",
      "lat": 55.7558,
      "lng": 37.6173,
      "link": "https://en.wikipedia.org/wiki/Moscow",
      "sourceId": "euromonitor-top100-city-destinations-2018"
    },
    {
      "id": "athens",
      "rank": 49,
      "city": "Athens",
      "country": "Greece",
      "region": "Global",
      "lat": 37.9838,
      "lng": 23.7275,
      "link": "https://en.wikipedia.org/wiki/Athens",
      "sourceId": "euromonitor-top100-city-destinations-2018"
    },
    {
      "id": "cairo",
      "rank": 50,
      "city": "Cairo",
      "country": "Egypt",
      "region": "Global",
      "lat": 30.0444,
      "lng": 31.2357,
      "link": "https://en.wikipedia.org/wiki/Cairo",
      "sourceId": "euromonitor-top100-city-destinations-2018"
    },
    {
      "id": "ha-noi",
      "rank": 51,
      "city": "Ha Noi",
      "country": "Vietnam",
      "region": "Global",
      "lat": 21.0278,
      "lng": 105.8342,
      "link": "https://en.wikipedia.org/wiki/Ha_Noi",
      "sourceId": "euromonitor-top100-city-destinations-2018"
    },
    {
      "id": "toronto",
      "rank": 52,
      "city": "Toronto",
      "country": "Canada",
      "region": "Global",
      "lat": 43.6532,
      "lng": -79.3832,
      "link": "https://en.wikipedia.org/wiki/Toronto",
      "sourceId": "euromonitor-top100-city-destinations-2018"
    },
    {
      "id": "ha-long",
      "rank": 53,
      "city": "Ha Long",
      "country": "Vietnam",
      "region": "Global",
      "lat": 20.9712,
      "lng": 107.0448,
      "link": "https://en.wikipedia.org/wiki/Ha_Long",
      "sourceId": "euromonitor-top100-city-destinations-2018"
    },
    {
      "id": "beijing",
      "rank": 54,
      "city": "Beijing",
      "country": "China",
      "region": "Global",
      "lat": 39.9042,
      "lng": 116.4074,
      "link": "https://en.wikipedia.org/wiki/Beijing",
      "sourceId": "euromonitor-top100-city-destinations-2018"
    },
    {
      "id": "sydney",
      "rank": 55,
      "city": "Sydney",
      "country": "Australia",
      "region": "Global",
      "lat": -33.8688,
      "lng": 151.2093,
      "link": "https://en.wikipedia.org/wiki/Sydney",
      "sourceId": "euromonitor-top100-city-destinations-2018"
    },
    {
      "id": "munich",
      "rank": 56,
      "city": "Munich",
      "country": "Germany",
      "region": "Global",
      "lat": 48.1351,
      "lng": 11.582,
      "link": "https://en.wikipedia.org/wiki/Munich",
      "sourceId": "euromonitor-top100-city-destinations-2018"
    },
    {
      "id": "budapest",
      "rank": 57,
      "city": "Budapest",
      "country": "Hungary",
      "region": "Global",
      "lat": 47.4979,
      "lng": 19.0402,
      "link": "https://en.wikipedia.org/wiki/Budapest",
      "sourceId": "euromonitor-top100-city-destinations-2018"
    },
    {
      "id": "punta-cana",
      "rank": 58,
      "city": "Punta Cana",
      "country": "Dominican Republic",
      "region": "Global",
      "lat": 18.5601,
      "lng": -68.3725,
      "link": "https://en.wikipedia.org/wiki/Punta_Cana",
      "sourceId": "euromonitor-top100-city-destinations-2018"
    },
    {
      "id": "st-petersburg",
      "rank": 59,
      "city": "St. Petersburg",
      "country": "Russia",
      "region": "Global",
      "lat": 59.9311,
      "lng": 30.3609,
      "link": "https://en.wikipedia.org/wiki/St._Petersburg",
      "sourceId": "euromonitor-top100-city-destinations-2018"
    },
    {
      "id": "jakarta",
      "rank": 60,
      "city": "Jakarta",
      "country": "Indonesia",
      "region": "Global",
      "lat": -6.2088,
      "lng": 106.8456,
      "link": "https://en.wikipedia.org/wiki/Jakarta",
      "sourceId": "euromonitor-top100-city-destinations-2018"
    },
    {
      "id": "dammam-city",
      "rank": 61,
      "city": "Dammam City",
      "country": "Saudi Arabia",
      "region": "Global",
      "lat": 26.4207,
      "lng": 50.0888,
      "link": "https://en.wikipedia.org/wiki/Dammam_City",
      "sourceId": "euromonitor-top100-city-destinations-2018"
    },
    {
      "id": "lisbon",
      "rank": 62,
      "city": "Lisbon",
      "country": "Portugal",
      "region": "Global",
      "lat": 38.7223,
      "lng": -9.1393,
      "link": "https://en.wikipedia.org/wiki/Lisbon",
      "sourceId": "euromonitor-top100-city-destinations-2018"
    },
    {
      "id": "jerusalem",
      "rank": 63,
      "city": "Jerusalem",
      "country": "Israel",
      "region": "Global",
      "lat": 31.7683,
      "lng": 35.2137,
      "link": "https://en.wikipedia.org/wiki/Jerusalem",
      "sourceId": "euromonitor-top100-city-destinations-2018"
    },
    {
      "id": "chiang-mai",
      "rank": 64,
      "city": "Chiang Mai",
      "country": "Thailand",
      "region": "Global",
      "lat": 18.7883,
      "lng": 98.9853,
      "link": "https://en.wikipedia.org/wiki/Chiang_Mai",
      "sourceId": "euromonitor-top100-city-destinations-2018"
    },
    {
      "id": "zhuhai",
      "rank": 65,
      "city": "Zhuhai",
      "country": "China",
      "region": "Global",
      "lat": 22.2711,
      "lng": 113.5767,
      "link": "https://en.wikipedia.org/wiki/Zhuhai",
      "sourceId": "euromonitor-top100-city-destinations-2018"
    },
    {
      "id": "penang-island",
      "rank": 66,
      "city": "Penang Island",
      "country": "Malaysia",
      "region": "Global",
      "lat": 5.4164,
      "lng": 100.3327,
      "link": "https://en.wikipedia.org/wiki/Penang_Island",
      "sourceId": "euromonitor-top100-city-destinations-2018"
    },
    {
      "id": "kyoto",
      "rank": 67,
      "city": "Kyoto",
      "country": "Japan",
      "region": "Global",
      "lat": 35.0116,
      "lng": 135.7681,
      "link": "https://en.wikipedia.org/wiki/Kyoto",
      "sourceId": "euromonitor-top100-city-destinations-2018"
    },
    {
      "id": "heraklion",
      "rank": 68,
      "city": "Heraklion",
      "country": "Greece",
      "region": "Global",
      "lat": 35.3387,
      "lng": 25.1442,
      "link": "https://en.wikipedia.org/wiki/Heraklion",
      "sourceId": "euromonitor-top100-city-destinations-2018"
    },
    {
      "id": "phnom-penh",
      "rank": 69,
      "city": "Phnom Penh",
      "country": "Cambodia",
      "region": "Global",
      "lat": 11.5564,
      "lng": 104.9282,
      "link": "https://en.wikipedia.org/wiki/Phnom_Penh",
      "sourceId": "euromonitor-top100-city-destinations-2018"
    },
    {
      "id": "brussels",
      "rank": 70,
      "city": "Brussels",
      "country": "Belgium",
      "region": "Global",
      "lat": 50.8503,
      "lng": 4.3517,
      "link": "https://en.wikipedia.org/wiki/Brussels",
      "sourceId": "euromonitor-top100-city-destinations-2018"
    },
    {
      "id": "vancouver",
      "rank": 71,
      "city": "Vancouver",
      "country": "Canada",
      "region": "Global",
      "lat": 49.2827,
      "lng": -123.1207,
      "link": "https://en.wikipedia.org/wiki/Vancouver",
      "sourceId": "euromonitor-top100-city-destinations-2018"
    },
    {
      "id": "copenhagen",
      "rank": 72,
      "city": "Copenhagen",
      "country": "Denmark",
      "region": "Global",
      "lat": 55.6761,
      "lng": 12.5683,
      "link": "https://en.wikipedia.org/wiki/Copenhagen",
      "sourceId": "euromonitor-top100-city-destinations-2018"
    },
    {
      "id": "san-francisco",
      "rank": 73,
      "city": "San Francisco",
      "country": "United States",
      "region": "Global",
      "lat": 37.7749,
      "lng": -122.4194,
      "link": "https://en.wikipedia.org/wiki/San_Francisco",
      "sourceId": "euromonitor-top100-city-destinations-2018"
    },
    {
      "id": "warsaw",
      "rank": 74,
      "city": "Warsaw",
      "country": "Poland",
      "region": "Global",
      "lat": 52.2297,
      "lng": 21.0122,
      "link": "https://en.wikipedia.org/wiki/Warsaw",
      "sourceId": "euromonitor-top100-city-destinations-2018"
    },
    {
      "id": "krakow",
      "rank": 75,
      "city": "Krakow",
      "country": "Poland",
      "region": "Global",
      "lat": 50.0647,
      "lng": 19.945,
      "link": "https://en.wikipedia.org/wiki/Krakow",
      "sourceId": "euromonitor-top100-city-destinations-2018"
    },
    {
      "id": "melbourne",
      "rank": 76,
      "city": "Melbourne",
      "country": "Australia",
      "region": "Global",
      "lat": -37.8136,
      "lng": 144.9631,
      "link": "https://en.wikipedia.org/wiki/Melbourne",
      "sourceId": "euromonitor-top100-city-destinations-2018"
    },
    {
      "id": "honolulu",
      "rank": 77,
      "city": "Honolulu",
      "country": "United States",
      "region": "Global",
      "lat": 21.3069,
      "lng": -157.8583,
      "link": "https://en.wikipedia.org/wiki/Honolulu",
      "sourceId": "euromonitor-top100-city-destinations-2018"
    },
    {
      "id": "marrakech",
      "rank": 78,
      "city": "Marrakech",
      "country": "Morocco",
      "region": "Global",
      "lat": 31.6295,
      "lng": -7.9811,
      "link": "https://en.wikipedia.org/wiki/Marrakech",
      "sourceId": "euromonitor-top100-city-destinations-2018"
    },
    {
      "id": "auckland",
      "rank": 79,
      "city": "Auckland",
      "country": "New Zealand",
      "region": "Global",
      "lat": -36.8509,
      "lng": 174.7645,
      "link": "https://en.wikipedia.org/wiki/Auckland",
      "sourceId": "euromonitor-top100-city-destinations-2018"
    },
    {
      "id": "lviv",
      "rank": 80,
      "city": "Lviv",
      "country": "Ukraine",
      "region": "Global",
      "lat": 49.8397,
      "lng": 24.0297,
      "link": "https://en.wikipedia.org/wiki/Lviv",
      "sourceId": "euromonitor-top100-city-destinations-2018"
    },
    {
      "id": "tel-aviv",
      "rank": 81,
      "city": "Tel Aviv",
      "country": "Israel",
      "region": "Global",
      "lat": 32.0853,
      "lng": 34.7818,
      "link": "https://en.wikipedia.org/wiki/Tel_Aviv",
      "sourceId": "euromonitor-top100-city-destinations-2018"
    },
    {
      "id": "kolkata",
      "rank": 82,
      "city": "Kolkata",
      "country": "India",
      "region": "Global",
      "lat": 22.5726,
      "lng": 88.3639,
      "link": "https://en.wikipedia.org/wiki/Kolkata",
      "sourceId": "euromonitor-top100-city-destinations-2018"
    },
    {
      "id": "frankfurt",
      "rank": 83,
      "city": "Frankfurt",
      "country": "Germany",
      "region": "Global",
      "lat": 50.1109,
      "lng": 8.6821,
      "link": "https://en.wikipedia.org/wiki/Frankfurt",
      "sourceId": "euromonitor-top100-city-destinations-2018"
    },
    {
      "id": "guilin",
      "rank": 84,
      "city": "Guilin",
      "country": "China",
      "region": "Global",
      "lat": 25.2736,
      "lng": 110.29,
      "link": "https://en.wikipedia.org/wiki/Guilin",
      "sourceId": "euromonitor-top100-city-destinations-2018"
    },
    {
      "id": "stockholm",
      "rank": 85,
      "city": "Stockholm",
      "country": "Sweden",
      "region": "Global",
      "lat": 59.3293,
      "lng": 18.0686,
      "link": "https://en.wikipedia.org/wiki/Stockholm",
      "sourceId": "euromonitor-top100-city-destinations-2018"
    },
    {
      "id": "siem-reap",
      "rank": 86,
      "city": "Siem Reap",
      "country": "Cambodia",
      "region": "Global",
      "lat": 13.3671,
      "lng": 103.8448,
      "link": "https://en.wikipedia.org/wiki/Siem_Reap",
      "sourceId": "euromonitor-top100-city-destinations-2018"
    },
    {
      "id": "jeju",
      "rank": 87,
      "city": "Jeju",
      "country": "South Korea",
      "region": "Global",
      "lat": 33.4996,
      "lng": 126.5312,
      "link": "https://en.wikipedia.org/wiki/Jeju",
      "sourceId": "euromonitor-top100-city-destinations-2018"
    },
    {
      "id": "mexico-city",
      "rank": 88,
      "city": "Mexico City",
      "country": "Mexico",
      "region": "Global",
      "lat": 19.4326,
      "lng": -99.1332,
      "link": "https://en.wikipedia.org/wiki/Mexico_City",
      "sourceId": "euromonitor-top100-city-destinations-2018"
    },
    {
      "id": "buenos-aires-city",
      "rank": 89,
      "city": "Buenos Aires City",
      "country": "Argentina",
      "region": "Global",
      "lat": -34.6037,
      "lng": -58.3816,
      "link": "https://en.wikipedia.org/wiki/Buenos_Aires_City",
      "sourceId": "euromonitor-top100-city-destinations-2018"
    },
    {
      "id": "chiba",
      "rank": 90,
      "city": "Chiba",
      "country": "Japan",
      "region": "Global",
      "lat": 35.6074,
      "lng": 140.1065,
      "link": "https://en.wikipedia.org/wiki/Chiba",
      "sourceId": "euromonitor-top100-city-destinations-2018"
    },
    {
      "id": "lima",
      "rank": 91,
      "city": "Lima",
      "country": "Peru",
      "region": "Global",
      "lat": -12.0464,
      "lng": -77.0428,
      "link": "https://en.wikipedia.org/wiki/Lima",
      "sourceId": "euromonitor-top100-city-destinations-2018"
    },
    {
      "id": "nice",
      "rank": 92,
      "city": "Nice",
      "country": "France",
      "region": "Global",
      "lat": 43.7102,
      "lng": 7.262,
      "link": "https://en.wikipedia.org/wiki/Nice",
      "sourceId": "euromonitor-top100-city-destinations-2018"
    },
    {
      "id": "santiago",
      "rank": 93,
      "city": "Santiago",
      "country": "Chile",
      "region": "Global",
      "lat": -33.4489,
      "lng": -70.6693,
      "link": "https://en.wikipedia.org/wiki/Santiago",
      "sourceId": "euromonitor-top100-city-destinations-2018"
    },
    {
      "id": "rio-de-janeiro",
      "rank": 94,
      "city": "Rio de Janeiro",
      "country": "Brazil",
      "region": "Global",
      "lat": -22.9068,
      "lng": -43.1729,
      "link": "https://en.wikipedia.org/wiki/Rio_de_Janeiro",
      "sourceId": "euromonitor-top100-city-destinations-2018"
    },
    {
      "id": "abu-dhabi",
      "rank": 95,
      "city": "Abu Dhabi",
      "country": "United Arab Emirates",
      "region": "Global",
      "lat": 24.4539,
      "lng": 54.3773,
      "link": "https://en.wikipedia.org/wiki/Abu_Dhabi",
      "sourceId": "euromonitor-top100-city-destinations-2018"
    },
    {
      "id": "porto",
      "rank": 96,
      "city": "Porto",
      "country": "Portugal",
      "region": "Global",
      "lat": 41.1579,
      "lng": -8.6291,
      "link": "https://en.wikipedia.org/wiki/Porto",
      "sourceId": "euromonitor-top100-city-destinations-2018"
    },
    {
      "id": "batam",
      "rank": 97,
      "city": "Batam",
      "country": "Indonesia",
      "region": "Global",
      "lat": 1.1301,
      "lng": 104.0529,
      "link": "https://en.wikipedia.org/wiki/Batam",
      "sourceId": "euromonitor-top100-city-destinations-2018"
    },
    {
      "id": "doha",
      "rank": 98,
      "city": "Doha",
      "country": "Qatar",
      "region": "Global",
      "lat": 25.2854,
      "lng": 51.531,
      "link": "https://en.wikipedia.org/wiki/Doha",
      "sourceId": "euromonitor-top100-city-destinations-2018"
    },
    {
      "id": "rhodes",
      "rank": 99,
      "city": "Rhodes",
      "country": "Greece",
      "region": "Global",
      "lat": 36.4341,
      "lng": 28.2176,
      "link": "https://en.wikipedia.org/wiki/Rhodes",
      "sourceId": "euromonitor-top100-city-destinations-2018"
    },
    {
      "id": "krabi",
      "rank": 100,
      "city": "Krabi",
      "country": "Thailand",
      "region": "Global",
      "lat": 8.0863,
      "lng": 98.9063,
      "link": "https://en.wikipedia.org/wiki/Krabi",
      "sourceId": "euromonitor-top100-city-destinations-2018"
    }
  ]
}
